- id: kaleva_apartment_1
  locationType: residential_building
  address: Sammonkatu 42, Tampere
  coordinates:
    lat: 61.5008
    lon: 23.7998
  regionTags:
    - urban
- id: hervanta_apartment_1
  locationType: residential_building
  address: Insinoorinkatu 48, Tampere
  coordinates:
    lat: 61.4498
    lon: 23.8525
  regionTags:
    - urban
- id: central_square_venue
  locationType: public_venue
  address: Keskustori 1, Tampere
  coordinates:
    lat: 61.4982
    lon: 23.7608
  regionTags:
    - urban
- id: ratina_mall
  locationType: public_venue
  address: Vuolteenkatu 1, Tampere
  coordinates:
    lat: 61.4932
    lon: 23.7644
  regionTags:
    - urban
    - commercial
- id: koskipuisto_office
  locationType: commercial_building
  address: Koskikatu 7, Tampere
  coordinates:
    lat: 61.5003
    lon: 23.7669
  regionTags:
    - urban
    - commercial
- id: tesoma_apartment_1
  locationType: residential_building
  address: Tesomankatu 2, Tampere
  coordinates:
    lat: 61.5066
    lon: 23.6302
  regionTags:
    - suburban
- id: linnainmaa_market
  locationType: commercial_building
  address: Maentakusenkatu 1, Tampere
  coordinates:
    lat: 61.5192
    lon: 23.8481
  regionTags:
    - suburban
    - commercial
